{"type":"FeatureCollection", "features": [
{"type":"Feature","geometry":{"type":"Point","coordinates":[121.53977800856491,25.159579691760694]},"properties":{"MARKID":"A0000012886","MARKTYPE1":"9940110","MARKTYPE2":"","MARKNAME1":"內政部營建署陽明山國家公園","MARKNAME2":"陽明山國家公園","MDATE":"202003","ADDRESS":"臺北市北投區竹子湖路1之20號","TEL":"(02)28613601-6"}},
{"type":"Feature","geometry":{"type":"Point","coordinates":[121.31981491292241,24.347602830200007]},"properties":{"MARKID":"B0000014157","MARKTYPE1":"9940110","MARKTYPE2":"","MARKNAME1":"內政部營建署雪霸國家公園","MARKNAME2":"雪霸國家公園","MDATE":"202203","ADDRESS":"","TEL":""}},
{"type":"Feature","geometry":{"type":"Point","coordinates":[121.25074288718395,24.254903677759618]},"properties":{"MARKID":"B0000009788","MARKTYPE1":"9940104","MARKTYPE2":"","MARKNAME1":"交通部光觀局參山國家風景區(梨山)","MARKNAME2":"參山國家風景區(梨山)","MDATE":"202111","ADDRESS":"","TEL":""}},
{"type":"Feature","geometry":{"type":"Point","coordinates":[121.01468867898804,24.192346365507845]},"properties":{"MARKID":"B0000009786","MARKTYPE1":"9940111","MARKTYPE2":"","MARKNAME1":"行政院農業委員會林務局東勢林區管理處八仙山國家森林遊樂區","MARKNAME2":"八仙山國家森林遊樂區","MDATE":"202001","ADDRESS":"臺中市和平區東關路一段200-8號","TEL":"886-4-25951214"}},
{"type":"Feature","geometry":{"type":"Point","coordinates":[121.3072727829621,24.397548851485954]},"properties":{"MARKID":"B0000012711","MARKTYPE1":"9940111","MARKTYPE2":"","MARKNAME1":"行政院農業委員會林務局東勢林區管理處武陵國家森林遊樂區","MARKNAME2":"武陵國家森林遊樂區","MDATE":"202010","ADDRESS":"","TEL":""}},
{"type":"Feature","geometry":{"type":"Point","coordinates":[120.13846633086759,23.0023683825782]},"properties":{"MARKID":"D0000009804","MARKTYPE1":"9940110","MARKTYPE2":"","MARKNAME1":"內政部營建署台江國家公園","MARKNAME2":"台江國家公園","MDATE":"201904","ADDRESS":"","TEL":""}},
{"type":"Feature","geometry":{"type":"Point","coordinates":[120.12415614252868,23.268849819872504]},"properties":{"MARKID":"D0000009805","MARKTYPE1":"9940104","MARKTYPE2":"","MARKNAME1":"交通部觀光局雲嘉南濱海國家風景區","MARKNAME2":"雲嘉南濱海國家風景區","MDATE":"202104","ADDRESS":"","TEL":""}},
{"type":"Feature","geometry":{"type":"Point","coordinates":[120.75461496368358,23.06757892368285]},"properties":{"MARKID":"E0000012924","MARKTYPE1":"9940111","MARKTYPE2":"","MARKNAME1":"行政院農業委員會林務局屏東林區管理處藤枝國家森林遊樂區","MARKNAME2":"藤枝國家森林遊樂區","MDATE":"202203","ADDRESS":"","TEL":""}},
{"type":"Feature","geometry":{"type":"Point","coordinates":[120.27326093528593,22.625912617088296]},"properties":{"MARKID":"E0000011316","MARKTYPE1":"9940110","MARKTYPE2":"","MARKNAME1":"內政部營建署壽山國家自然公園","MARKNAME2":"壽山國家自然公園","MDATE":"201904","ADDRESS":"高雄市鼓山區萬壽路301號","TEL":"07-5221010"}},
{"type":"Feature","geometry":{"type":"Point","coordinates":[120.65011797192531,22.88082299517089]},"properties":{"MARKID":"E0000006635","MARKTYPE1":"9940104","MARKTYPE2":"","MARKNAME1":"交通部光觀局茂林國家風景區","MARKNAME2":"茂林國家風景區","MDATE":"202201","ADDRESS":"高雄市茂林區","TEL":"886-7-6801525"}},
{"type":"Feature","geometry":{"type":"Point","coordinates":[121.44905985609203,24.822226122295714]},"properties":{"MARKID":"F0000012460","MARKTYPE1":"9940111","MARKTYPE2":"","MARKNAME1":"行政院農業委員會林務局新竹林區管理處滿月圓國家森林遊樂區","MARKNAME2":"滿月圓國家森林遊樂區","MDATE":"202201","ADDRESS":"新北市三峽區有木里174之1號","TEL":"(02)2672-0004"}},
{"type":"Feature","geometry":{"type":"Point","coordinates":[121.52635598511414,24.834468318419137]},"properties":{"MARKID":"F0000015311","MARKTYPE1":"9940111","MARKTYPE2":"","MARKNAME1":"行政院農業委員會林務局新竹林區管理處內洞國家森林遊樂區","MARKNAME2":"內洞國家森林遊樂區","MDATE":"202109","ADDRESS":"新北市烏來區信賢里娃娃谷46號","TEL":"(02)2661-7358"}},
{"type":"Feature","geometry":{"type":"Point","coordinates":[121.51911653163485,25.283169439912097]},"properties":{"MARKID":"F0000014617","MARKTYPE1":"9940104","MARKTYPE2":"","MARKNAME1":"交通部觀光局北海岸及觀音山國家風景區","MARKNAME2":"北海岸及觀音山國家風景區","MDATE":"202201","ADDRESS":"新北市石門區德茂里下員坑33之6號","TEL":"02-8635-5100"}},
{"type":"Feature","geometry":{"type":"Point","coordinates":[121.94277628276723,25.017456456782273]},"properties":{"MARKID":"F0000016178","MARKTYPE1":"9940104","MARKTYPE2":"","MARKNAME1":"交通部觀光局東北角暨宜蘭海岸國家風景區","MARKNAME2":"東北角暨宜蘭海岸國家風景區","MDATE":"202201","ADDRESS":"新北市貢寮區興隆街36號","TEL":"02-2499-1210"}},
{"type":"Feature","geometry":{"type":"Point","coordinates":[121.53681602525032,24.492737659393654]},"properties":{"MARKID":"G0000003298","MARKTYPE1":"9940111","MARKTYPE2":"","MARKNAME1":"行政院農業委員會林務局羅東林區管理處太平山國家森林遊樂區","MARKNAME2":"太平山國家森林遊樂區","MDATE":"201904","ADDRESS":"宜蘭縣大同鄉太平巷58之1號","TEL":"03-9809805"}},
{"type":"Feature","geometry":{"type":"Point","coordinates":[121.38399289890486,24.67970958170331]},"properties":{"MARKID":"H0000009184","MARKTYPE1":"9940104","MARKTYPE2":"","MARKNAME1":"交通部觀光局巴陵達觀山風景特定區","MARKNAME2":"巴陵達觀山風景特定區","MDATE":"202112","ADDRESS":"桃園市復興區華陵村7鄰29號","TEL":"033912761（拉拉山遊客中心）"}},
{"type":"Feature","geometry":{"type":"Point","coordinates":[121.37490248001562,24.789994828822294]},"properties":{"MARKID":"H0000009825","MARKTYPE1":"9940104","MARKTYPE2":"","MARKNAME1":"交通部觀光局小烏來風景特定區","MARKNAME2":"小烏來風景特定區","MDATE":"202112","ADDRESS":"桃園市復興區下宇內4之6號","TEL":"03-382-1235"}},
{"type":"Feature","geometry":{"type":"Point","coordinates":[121.24732412764705,24.81130805341909]},"properties":{"MARKID":"H0000009712","MARKTYPE1":"9940104","MARKTYPE2":"","MARKNAME1":"交通部觀光局石門水庫風景特定區","MARKNAME2":"石門水庫風景特定區","MDATE":"202112","ADDRESS":"桃園市大溪區復興里環湖路一段68號","TEL":"03-471-2000"}},
{"type":"Feature","geometry":{"type":"Point","coordinates":[121.40971031948,24.831538892032686]},"properties":{"MARKID":"H0000007518","MARKTYPE1":"9940111","MARKTYPE2":"","MARKNAME1":"行政院農業委員會林務局新竹林區管理處東眼山國家森林遊樂區","MARKNAME2":"東眼山國家森林遊樂區","MDATE":"201904","ADDRESS":"桃園市復興區霞雲里佳志35號","TEL":"(03)3821506"}},
{"type":"Feature","geometry":{"type":"Point","coordinates":[121.32947081362238,25.00183148279793]},"properties":{"MARKID":"H0000010561","MARKTYPE1":"9940104","MARKTYPE2":"","MARKNAME1":"交通部觀光局虎頭山風景特定區","MARKNAME2":"虎頭山風景特定區","MDATE":"202112","ADDRESS":"桃園市桃園區公園路42號","TEL":"03-394-6061"}},
{"type":"Feature","geometry":{"type":"Point","coordinates":[120.88077453062094,24.448554128905712]},"properties":{"MARKID":"K0000003860","MARKTYPE1":"9940110","MARKTYPE2":"","MARKNAME1":"內政部營建署雪霸國家公園","MARKNAME2":"雪霸國家公園","MDATE":"202109","ADDRESS":"苗栗縣大湖鄉富興村水尾坪100號","TEL":"(037) 996100"}},
{"type":"Feature","geometry":{"type":"Point","coordinates":[120.8862040847395,24.584645947863805]},"properties":{"MARKID":"K0000004379","MARKTYPE1":"9940104","MARKTYPE2":"","MARKNAME1":"交通部觀光局明德水庫風景特定區","MARKNAME2":"明德水庫風景特定區","MDATE":"202201","ADDRESS":"苗栗縣頭屋鄉明德路90之1號","TEL":"037-335911"}},
{"type":"Feature","geometry":{"type":"Point","coordinates":[121.11367114889504,24.505943039908317]},"properties":{"MARKID":"K0000002913","MARKTYPE1":"9940111","MARKTYPE2":"","MARKNAME1":"行政院農業委員會林務局新竹林區管理處觀霧國家森林遊樂區","MARKNAME2":"觀霧國家森林遊樂區","MDATE":"202202","ADDRESS":"苗栗縣泰安鄉梅園村8鄰觀霧1之3號","TEL":"(03)727-2917"}},
{"type":"Feature","geometry":{"type":"Point","coordinates":[120.89186552165128,23.487500243793622]},"properties":{"MARKID":"M0000004343","MARKTYPE1":"9940110","MARKTYPE2":"","MARKNAME1":"內政部營建署玉山國家公園","MARKNAME2":"玉山國家公園","MDATE":"202008","ADDRESS":"南投縣水里鄉中山路一段515號","TEL":"049-2773121"}},
{"type":"Feature","geometry":{"type":"Point","coordinates":[120.90261089728489,23.851843127991888]},"properties":{"MARKID":"M0000004344","MARKTYPE1":"9940104","MARKTYPE2":"","MARKNAME1":"交通部觀光局日月潭國家風景區","MARKNAME2":"日月潭國家風景區","MDATE":"202010","ADDRESS":"南投縣魚池鄉中山路599號","TEL":"(049)285-5668"}},
{"type":"Feature","geometry":{"type":"Point","coordinates":[121.177332144822,23.95363250915983]},"properties":{"MARKID":"M0000004361","MARKTYPE1":"9940111","MARKTYPE2":"","MARKNAME1":"行政院農業委員會林務局南投林區管理處奧萬大國家森林遊樂區","MARKNAME2":"奧萬大國家森林遊樂區","MDATE":"201910","ADDRESS":"南投縣仁愛鄉親愛村大安路153號","TEL":"049-2974511"}},
{"type":"Feature","geometry":{"type":"Point","coordinates":[120.96976365417105,24.774971868790377]},"properties":{"MARKID":"O0000002416","MARKTYPE1":"9940104","MARKTYPE2":"","MARKNAME1":"交通部觀光局青草湖風景特定區","MARKNAME2":"青草湖風景特定區","MDATE":"202201","ADDRESS":"新竹市東區明湖路775巷51號","TEL":"35216121"}},
{"type":"Feature","geometry":{"type":"Point","coordinates":[120.58568758609191,23.44648016894558]},"properties":{"MARKID":"Q0000003698","MARKTYPE1":"9940104","MARKTYPE2":"","MARKNAME1":"交通部觀光局阿里山國家風景區","MARKNAME2":"阿里山國家風景區","MDATE":"202104","ADDRESS":"","TEL":""}},
{"type":"Feature","geometry":{"type":"Point","coordinates":[120.80198001651844,23.508794669811216]},"properties":{"MARKID":"Q0000003812","MARKTYPE1":"9940111","MARKTYPE2":"","MARKNAME1":"行政院農業委員會林務局嘉義林區管理處阿里山國家森林遊樂區","MARKNAME2":"阿里山國家森林遊樂區","MDATE":"202008","ADDRESS":"嘉義縣阿里山鄉中正村59號","TEL":"886-5-2769917"}},
{"type":"Feature","geometry":{"type":"Point","coordinates":[120.78054164815516,21.94843606143764]},"properties":{"MARKID":"T0000003788","MARKTYPE1":"9940110","MARKTYPE2":"","MARKNAME1":"內政部營建署墾丁國家公園","MARKNAME2":"墾丁國家公園","MDATE":"201904","ADDRESS":"","TEL":""}},
{"type":"Feature","geometry":{"type":"Point","coordinates":[120.81189955248855,21.95872310058913]},"properties":{"MARKID":"T0000003948","MARKTYPE1":"9940111","MARKTYPE2":"","MARKNAME1":"行政院農業委員會林務局屏東林區管理處墾丁國家森林遊樂區","MARKNAME2":"墾丁國家森林遊樂區","MDATE":"201911","ADDRESS":"屏東縣恆春鎮公園路201號","TEL":"886-8-8861211"}},
{"type":"Feature","geometry":{"type":"Point","coordinates":[120.79602602211641,22.217711827921143]},"properties":{"MARKID":"T0000004125","MARKTYPE1":"9940111","MARKTYPE2":"","MARKNAME1":"行政院農業委員會林務局屏東林區管理處雙流國家森林遊樂區","MARKNAME2":"雙流國家森林遊樂區","MDATE":"201911","ADDRESS":"屏東縣獅子鄉丹路2巷","TEL":"886-8-8701394"}},
{"type":"Feature","geometry":{"type":"Point","coordinates":[120.4793912080857,22.45681633637218]},"properties":{"MARKID":"T0000004999","MARKTYPE1":"9940104","MARKTYPE2":"","MARKNAME1":"大鵬灣國家風景區","MARKNAME2":"大鵬灣國家風景區","MDATE":"202106","ADDRESS":"屏東縣東港鎮大潭路169號","TEL":"886-8-8338100"}},
{"type":"Feature","geometry":{"type":"Point","coordinates":[121.39088927786517,23.524195550291605]},"properties":{"MARKID":"U0000002478","MARKTYPE1":"9940104","MARKTYPE2":"","MARKNAME1":"交通部觀光局花東縱谷國家風景區","MARKNAME2":"花東縱谷國家風景區","MDATE":"202104","ADDRESS":"","TEL":""}},
{"type":"Feature","geometry":{"type":"Point","coordinates":[121.35450351807086,23.588983886061655]},"properties":{"MARKID":"U0000000810","MARKTYPE1":"9940111","MARKTYPE2":"","MARKNAME1":"行政院農業委員會林務局花蓮林區管理處富源國家森林遊樂區","MARKNAME2":"富源國家森林遊樂區","MDATE":"201904","ADDRESS":"花蓮縣瑞穗鄉廣東路161號","TEL":"886-3-8812377"}},
{"type":"Feature","geometry":{"type":"Point","coordinates":[121.2844539108348,24.142427551058177]},"properties":{"MARKID":"U0000002476","MARKTYPE1":"9940111","MARKTYPE2":"","MARKNAME1":"行政院農業委員會林務局東勢林區管理處合歡山國家森林遊樂區","MARKNAME2":"合歡山國家森林遊樂區","MDATE":"201904","ADDRESS":"","TEL":""}},
{"type":"Feature","geometry":{"type":"Point","coordinates":[121.62300173546483,24.158082634380552]},"properties":{"MARKID":"U0000002475","MARKTYPE1":"9940110","MARKTYPE2":"","MARKNAME1":"內政部營建署太魯閣國家公園管理處本部","MARKNAME2":"太魯閣國家公園管理處本部","MDATE":"202109","ADDRESS":"花蓮縣秀林鄉富世村富世291號","TEL":""}},
{"type":"Feature","geometry":{"type":"Point","coordinates":[121.5020441172707,23.918271682476195]},"properties":{"MARKID":"U0000000987","MARKTYPE1":"9940111","MARKTYPE2":"","MARKNAME1":"行政院農業委員會林務局花蓮林區管理處池南國家森林遊樂區","MARKNAME2":"池南國家森林遊樂區","MDATE":"201711","ADDRESS":"花蓮縣壽豐鄉花蓮縣壽豐鄉池南村林園路76號","TEL":"886-3-8641594"}},
{"type":"Feature","geometry":{"type":"Point","coordinates":[120.99128610263503,22.687160924035965]},"properties":{"MARKID":"V0000002640","MARKTYPE1":"9940111","MARKTYPE2":"","MARKNAME1":"行政院農業委員會林務局臺東林區管理處知本國家森林遊樂區","MARKNAME2":"知本森林遊樂區","MDATE":"202009","ADDRESS":"臺東縣卑南鄉龍泉路290號","TEL":"886-8-9510961"}},
{"type":"Feature","geometry":{"type":"Point","coordinates":[121.32344383391005,23.019590633458748]},"properties":{"MARKID":"V0000002641","MARKTYPE1":"9940104","MARKTYPE2":"","MARKNAME1":"交通部觀光局東部海岸國家風景區","MARKNAME2":"東部海岸國家風景區","MDATE":"202104","ADDRESS":"","TEL":""}},
{"type":"Feature","geometry":{"type":"Point","coordinates":[120.98493703510941,23.24807650778889]},"properties":{"MARKID":"V0000002639","MARKTYPE1":"9940111","MARKTYPE2":"","MARKNAME1":"行政院農業委員會林務局臺東林區管理處向陽國家森林遊樂區","MARKNAME2":"向陽國家森林遊樂區","MDATE":"202103","ADDRESS":"臺東縣海端鄉利稻村向陽7號","TEL":"886-8-9337167"}}
]}